[
  {
    "id": "PRX/PK/001",
    "doktor": "MVDr. Hladík Slavomír",
    "adresa": "Plachty 512/2, Brno  634 00",
    "nazev": "Veterinární ordinace Hladíkovi s.r.o.",
    "telefon": "602422093",
    "email": "sl.hladik@seznam.cz",
    "web": "https://www.drhladik.cz/",
    "lat": 49.1795034,
    "lon": 16.549067
  },
  {
    "id": "PRX/PK/002",
    "doktor": "MVDr. Chyba Marek",
    "adresa": "Slovanské nám. 1997/6, 612 00 Brno",
    "nazev": "MVDr. Marek Chyba",
    "telefon": "603722317",
    "email": "chybavet@email.cz",
    "web": "",
    "lat": 49.2236376,
    "lon": 16.5907986
  },
  {
    "id": "PRX/PK/003",
    "doktor": "MVDr. Kučera Luděk",
    "adresa": "Sokolovská 5081/48, 586 01 Jihlava",
    "nazev": "MVDr. Luděk Kučera",
    "telefon": "724340220",
    "email": "info@veterina-kucera.cz",
    "web": "https://www.veterina-kucera.cz/",
    "lat": 49.4094737,
    "lon": 15.5859865
  },
  {
    "id": "PRX/PK/004",
    "doktor": "MVDr. Leimerová Jana",
    "adresa": "Rájec 84,  789 01",
    "nazev": "MVDr. Jana Leimerová",
    "telefon": "732441303",
    "email": "leimerova@veterinazabreh.cz",
    "web": "https://veterinazabreh.cz/tym/",
    "lat": 49.853905,
    "lon": 16.9045443
  },
  {
    "id": "PRX/PK/005",
    "doktor": "MVDr. Načeradská Martina",
    "adresa": "Úvalská 32/1222, 100 00 Praha 10",
    "nazev": "Načeradská s.r.o.",
    "telefon": "774418018",
    "email": " info@naceradska.cz",
    "web": "http://www.naceradska.cz/",
    "lat": 50.0761113,
    "lon": 14.5078084
  },
  {
    "id": "PRX/PK/006",
    "doktor": "neplatné",
    "adresa": "",
    "nazev": "",
    "telefon": "",
    "email": "",
    "web": "",
    "lat": 49.7439047,
    "lon": 15.3381061
  },
  {
    "id": "PRX/PK/007",
    "doktor": "MVDr. Neuman Tomáš, MVDr. Drahotský Petr",
    "adresa": "Žižkova 871, 530 06 Pardubice",
    "nazev": "VETOPET s.r.o.",
    "telefon": "776260110",
    "email": "info@vetopet.cz",
    "web": "https://www.vetopet.cz/",
    "lat": 50.0250942,
    "lon": 15.7234224
  },
  {
    "id": "PRX/PK/008",
    "doktor": "MVDr. Počta Stanislav",
    "adresa": "Horská 696, 541 02 Trutnov",
    "nazev": "Horská veterinární klinika s.r.o.",
    "telefon": "777305410",
    "email": "info@veterinatrutnov.cz",
    "web": "https://www.veterinatrutnov.cz/",
    "lat": 50.5776933,
    "lon": 15.894277
  },
  {
    "id": "PRX/PK/009",
    "doktor": "MVDr. Raška Vitězslav",
    "adresa": "Hynaisova 790/12, 709 00 Ostrava",
    "nazev": "VETMED Ostrava s.r.o.",
    "telefon": "603773241",
    "email": "info@vetmed.cz",
    "web": "",
    "lat": 49.8293637,
    "lon": 18.2611112
  },
  {
    "id": "PRX/PK/010",
    "doktor": "MVDr. Rigler Radoslav",
    "adresa": "Agátová 5, 900 31 Stupava, SR",
    "nazev": "MVDr. Radoslav Rigler",
    "telefon": "421903406627",
    "email": "mvdr@rigler.sk",
    "web": "https://www.rigler.sk/",
    "lat": 48.2724628,
    "lon": 17.0284089
  },
  {
    "id": "PRX/PK/011",
    "doktor": "MVDr. Rozkolová Sandra",
    "adresa": "Křehlíkova 1450/21a, 627 00 Brno",
    "nazev": "Veterinární ordinace ROCOVET",
    "telefon": "778534334",
    "email": "veterina@rocovet.cz",
    "web": "https://www.rocovet.cz/",
    "lat": 49.1717676,
    "lon": 16.6896512
  },
  {
    "id": "PRX/PK/012",
    "doktor": "MVDr. Stloukal Aleš",
    "adresa": "Nádražní 131, 261 01 Příbram",
    "nazev": "Veterinární klinika Na Weilovně",
    "telefon": "724277230",
    "email": "stloukal@weilovna.cz",
    "web": "https://www.weilovna.cz/klinika",
    "lat": 49.6865937,
    "lon": 14.0043665
  },
  {
    "id": "PRX/PK/013",
    "doktor": "MVDr. Šuláková Eva",
    "adresa": "Údolní 44/8, 725 29 Ostrava-Petřkovice",
    "nazev": "Veterinární ambulance LandekVet",
    "telefon": "604528996",
    "email": "matejova-eva@email.cz",
    "web": "",
    "lat": 49.8695163,
    "lon": 18.2577738
  },
  {
    "id": "PRX/PK/014",
    "doktor": "MVDr. Zelinka Martin",
    "adresa": "Středová 408, 735 43 Albrechtice",
    "nazev": "Veterinární ordinace Albrechtice",
    "telefon": "774033213",
    "email": "veterinaalbrechtice@seznam.cz",
    "web": "https://www.veterina-live.eu/",
    "lat": 49.7832588,
    "lon": 18.5227188
  },
  {
    "id": "PRX/PK/015",
    "doktor": "MVDr. Jahoda Jiří ",
    "adresa": "Broučkova 5395, 760 01 Zlín",
    "nazev": "Medipet",
    "telefon": "577222737",
    "email": "medipet@post.cz",
    "web": "https://www.medipet.cz/",
    "lat": 49.2250601,
    "lon": 17.6973062
  },
  {
    "id": "PRX/PK/016",
    "doktor": "MVDr. Fiala Tomáš",
    "adresa": "Chmelová 3316/6b, 106 00 Praha 10",
    "nazev": "AA-Vet, s.r.o.",
    "telefon": "271751907",
    "email": "fiala@aavet.cz",
    "web": "https://www.aavet.cz/",
    "lat": 50.0589932,
    "lon": 14.4972573
  },
  {
    "id": "PRX/PK/017",
    "doktor": "MVDr. Švihran Milan",
    "adresa": "Semenárska 36, 851 10 Bratislava, Slovensko",
    "nazev": "MVDr. Milan Švihran",
    "telefon": "421911404521",
    "email": "milansvihran@gmail.com",
    "web": "https://veterinar-svihran.sk/",
    "lat": 48.066747,
    "lon": 17.1187742
  },
  {
    "id": "PRX/PK/018",
    "doktor": "MVDr. Mazoch Michael",
    "adresa": "Čechova 5, 779 00 Olomouc",
    "nazev": "Veterinární klinika MVDr. Michael Mazoch s.r.o.",
    "telefon": "585428351",
    "email": "veterina.olomouc@post.cz",
    "web": "https://www.veterina-olomouc.cz/",
    "lat": 49.5969796,
    "lon": 17.229552
  },
  {
    "id": "PRX/PK/019",
    "doktor": "VETINO Jaggy Brno",
    "adresa": "Komárovská 353/5, 617 00 Brno",
    "nazev": "VETINO Jaggy Brno s.r.o.",
    "telefon": "775057690",
    "email": "jaresova@jaggy.cz",
    "web": "https://www.jaggy.cz/nas-tym/",
    "lat": 49.1812883,
    "lon": 16.6196749
  },
  {
    "id": "PRX/PK/020",
    "doktor": "MVDr. Musialková Ivona, MVDr. Bednář Milan",
    "adresa": "Jeníkovská 1925, 286 01 Čáslav",
    "nazev": "NEOvet s.r.o.",
    "telefon": "724284155",
    "email": "info@neovet.cz",
    "web": "https://www.neovet.cz/",
    "lat": 49.9049955,
    "lon": 15.399489
  },
  {
    "id": "PRX/PK/021",
    "doktor": "MVDr. Vlach Dominik",
    "adresa": "Pražská 76, 250 01 Brandýs nad Labem",
    "nazev": "VetPark Clinics s.r.o. (pobočka klinika Brno)",
    "telefon": "725969964",
    "email": "brno@vetpark.cz",
    "web": "https://www.veterinarni-klinika-brno.com/",
    "lat": 50.1837731,
    "lon": 14.6583257
  },
  {
    "id": "PRX/PK/021",
    "doktor": "MVDr. Vlach Dominik, MVDr. Bayer Radek",
    "adresa": "Panešova 1032,  276 01  Mělník",
    "nazev": "VetPark Clinics s.r.o. (pobočka klinika Mělník)",
    "telefon": "315622694",
    "email": "melnik@vetpark.cz",
    "web": "https://www.veterinarni-kliniky.com/veterinarni-klinika-melnik",
    "lat": 50.3634398,
    "lon": 14.4703466
  },
  {
    "id": "PRX/PK/022",
    "doktor": "MVDr. Mužík Pavel",
    "adresa": "Pod Vrchem 51, 312 80 Plzeň",
    "nazev": "VEDILAB, spol. s r.o.",
    "telefon": "377262114",
    "email": "info@vedilab.cz",
    "web": "https://www.vedilab.cz/",
    "lat": 49.7433799,
    "lon": 13.4132806
  },
  {
    "id": "PRX/PK/023",
    "doktor": "Veterinární klinika Jaggy Praha",
    "adresa": "Reinerova 1712/9, 163 00 Praha 6",
    "nazev": "VETINO Jaggy Praha a.s.",
    "telefon": "235097540",
    "email": "info@jaggypraha.cz",
    "web": "https://www.jaggypraha.cz/",
    "lat": 50.0738829,
    "lon": 14.3047862
  },
  {
    "id": "PRX/PK/024",
    "doktor": "MVDr. Kubát Marek",
    "adresa": "Hrusická 2616/3, Praha 4",
    "nazev": "Well - vet. s.r.o.",
    "telefon": "272769306",
    "email": "info@well-vet.cz",
    "web": "https://well-vet.cz/",
    "lat": 50.0486499,
    "lon": 14.4846837
  },
  {
    "id": "PRX/PK/025",
    "doktor": "MVDr. Pfeifr Jakub",
    "adresa": "Blatnická 9, Brno 628 00",
    "nazev": "MVDr. Jakub Pfeifr",
    "telefon": "734421272",
    "email": "info@animed.cz",
    "web": "https://www.animed.cz/",
    "lat": 49.2087532,
    "lon": 16.6584128
  },
  {
    "id": "PRX/PK/026",
    "doktor": "MVDr. Krčálová Šárka",
    "adresa": "Kubíčkova 1115/8, Brno  635 00",
    "nazev": "Veterina Bystrc s.r.o.",
    "telefon": "604359053",
    "email": "ordinace@veterinabystrc.cz",
    "web": "",
    "lat": 49.2210029,
    "lon": 16.5179462
  },
  {
    "id": "PRX/PK/027",
    "doktor": "MVDr. Hazlingerová Gabriela",
    "adresa": "Obrancov mieru 1399/1, Gbely 908 45",
    "nazev": "MVDr. Hazlingerová Gabriela",
    "telefon": "421908797270",
    "email": "veterina@gbely.sk",
    "web": "",
    "lat": 48.7168947,
    "lon": 17.1214219
  },
  {
    "id": "PRX/PK/028",
    "doktor": "MVDr. Míková Lucie, MVDr. Vlček Libor",
    "adresa": "Otavská 1453,  370 11  České Budějovice",
    "nazev": "Veterinární klinika Vltava s.r.o.",
    "telefon": "385520561",
    "email": "vklinika@klinika-vltava.cz",
    "web": "www.klinika-vltava.cz",
    "lat": 48.9982221,
    "lon": 14.4489918
  },
  {
    "id": "PRX/PK/029",
    "doktor": "MVDr. Škor Ondřej, Dipl. ECVIM-CA",
    "adresa": "Konice 171,  Znojmo",
    "nazev": "MVDr. Škor Ondřej, Dipl. ECVIM-CA",
    "telefon": "734122232",
    "email": "ondrejskor.oncology@gmail.com",
    "web": "",
    "lat": 48.8321991,
    "lon": 16.0190262
  },
  {
    "id": "PRX/PK/030",
    "doktor": "MVDr. Snášil Milan, CSc.",
    "adresa": "Podveská 20,  624 00  Brno",
    "nazev": "MVDr. Snášil Milan, CSc.",
    "telefon": "734124883",
    "email": "veterina-info@seznam.cz",
    "web": "",
    "lat": 49.2168978,
    "lon": 16.5585619
  },
  {
    "id": "PRX/PK/031",
    "doktor": "MVDr. Motl Vítězslav",
    "adresa": "V Zahradách 354, 252 43  Průhonice",
    "nazev": "Veterinární klinika Průhonice",
    "telefon": "605264460",
    "email": "veterinapruhonice@gmail.com",
    "web": "www.veterinapruhonice.cz",
    "lat": 49.9974751,
    "lon": 14.5651724
  },
  {
    "id": "PRX/PK/032",
    "doktor": "MVDr. Dereza Dagmar",
    "adresa": "Tererova 1,  612 00  Brno",
    "nazev": "Veterina EDEN s.r.o.",
    "telefon": "725334737",
    "email": "info@veterinaeden.cz",
    "web": "https://veterina-eden.estranky.cz/",
    "lat": 49.2156991,
    "lon": 16.5874916
  },
  {
    "id": "PRX/PK/033",
    "doktor": "MVDr. Bialková Lucie",
    "adresa": "Hrabyně 85, 747 63  Hrabyně",
    "nazev": "",
    "telefon": "604945034",
    "email": "",
    "web": "",
    "lat": 49.8723398,
    "lon": 18.0515188
  },
  {
    "id": "PRX/PK/034",
    "doktor": "MVDr. Vomáčka Jiří",
    "adresa": "Zelená 1,  412 01  Litoměřice",
    "nazev": "LIVE VET s.r.o.",
    "telefon": "739052321",
    "email": "live@veterina-live.cz",
    "web": "",
    "lat": 50.5437363,
    "lon": 14.1158191
  },
  {
    "id": "PRX/PK/035",
    "doktor": "MVDr. Anton Pavel",
    "adresa": "Báštecká 93, Klíčany  250 69  Vodochody",
    "nazev": "Veterina Klíčany s.r.o.",
    "telefon": "602381277, 602381277",
    "email": "antonvet@seznam.cz",
    "web": "https://veterinaklicany.cz/",
    "lat": 50.20188,
    "lon": 14.4342122
  },
  {
    "id": "PRX/PK/036",
    "doktor": "MVDr. Lukšovská Pavlína",
    "adresa": "Ke Kamýku 996/3,  142 00  Praha 4",
    "nazev": "Ivet.cz, s.r.o.",
    "telefon": "603303989, 602136128",
    "email": "ivet@ivet.cz",
    "web": "https://www.veterinarni-klinika.net/",
    "lat": 50.0157112,
    "lon": 14.4462774
  },
  {
    "id": "PRX/PK/037",
    "doktor": "MVDr. Stárková Veronika, MVDr. Ciprová Dita",
    "adresa": "Zbraslavské nám. 1504, 156 00  Praha 5 Zbraslav",
    "nazev": "ArtVET s.r.o.",
    "telefon": "773877533",
    "email": "info@artvet.cz",
    "web": "https://www.artvet.cz/",
    "lat": 49.976418,
    "lon": 14.3943641
  },
  {
    "id": "PRX/PK/038",
    "doktor": "VETINO Aesculap Parbubice",
    "adresa": "Kpt. Nálepky 237, 530 02  Pardubice",
    "nazev": "VETINO Aesculap Pardubice s.r.o.",
    "telefon": "606140314",
    "email": "info@veterina-aesculap.cz",
    "web": "https://www.vetinogroup.cz/",
    "lat": 50.0201339,
    "lon": 15.7569996
  },
  {
    "id": "PRX/PK/039",
    "doktor": "MVDr. Kufa Libor, MVDr. Pumprla Michal",
    "adresa": "Kamenec 1646,  768 61  Bystřice pod Hostýnem",
    "nazev": "MVDR. Libor Kufa",
    "telefon": "777580157",
    "email": "vetmedix@seznam.cz",
    "web": "www.veterina-kufa.cz",
    "lat": 49.3999163,
    "lon": 17.6748487
  },
  {
    "id": "PRX/PK/040",
    "doktor": "MVDr. Rubešová Lenka",
    "adresa": "Ferdisa Kostku 1,  Karlova Ves, Slovensko",
    "nazev": "RuTy s.r.o.",
    "telefon": "421948188735",
    "email": "rutyvet@gmail.com",
    "web": "",
    "lat": 48.1592404,
    "lon": 17.0526768
  },
  {
    "id": "PRX/PK/041",
    "doktor": "MVDr. Adamať Dalibor",
    "adresa": "Električná 17,  911 01  Trenčín, Slovensko",
    "nazev": "Veterinárna klinika VETAXS s.r.o.",
    "telefon": "421326400080",
    "email": "vetaxs@vetaxs.sk",
    "web": "https://www.vetaxs.sk/",
    "lat": 48.8906085,
    "lon": 18.0309604
  },
  {
    "id": "PRX/PK/042",
    "doktor": "MVDr. Protiva Radek",
    "adresa": "Dvořákova 9,  301 00  Plzeň",
    "nazev": "RPVET s.r.o.",
    "telefon": "377422494",
    "email": "rpvet@rpvet.cz",
    "web": "https://rpvet.cz/",
    "lat": 49.7277657,
    "lon": 13.3690543
  },
  {
    "id": "PRX/PK/043",
    "doktor": "MVDr. Čučka Jan",
    "adresa": "Dukelských hrdinů 1654,  272 01  Kladno",
    "nazev": "Zvířecí doktor s.r.o.",
    "telefon": "774226266",
    "email": "info@zvireci-doktor.cz",
    "web": "http://zvireci-doktor.cz/",
    "lat": 50.1453538,
    "lon": 14.1069088
  },
  {
    "id": "PRX/PK/044",
    "doktor": "MVDr. Benda Jaroslav",
    "adresa": "Vejprnická 79,  318 00  Plzeň",
    "nazev": "Veterinární klinika Zodiacus",
    "telefon": "377389281",
    "email": "info@veterina-plzen.cz",
    "web": "https://veterina-plzen.cz/",
    "lat": 49.7427942,
    "lon": 13.3381313
  },
  {
    "id": "PRX/PK/045",
    "doktor": "MVDr. Panáček Dalibor",
    "adresa": "Kaštanová 285/15,  620 00   Brno",
    "nazev": "DERMIO-VET  s.r.o.",
    "telefon": "608812518",
    "email": "dermio-vet@seznam.cz",
    "web": "https://dermio-vet.cz/",
    "lat": 49.1544463,
    "lon": 16.6511251
  },
  {
    "id": "PRX/PK/046",
    "doktor": "MVDr. Horák David",
    "adresa": "Merhautova 93,  613 00  Brno",
    "nazev": "Veterina Merhautova",
    "telefon": "545211301, 604564150",
    "email": "dahorak@email.cz",
    "web": "https://www.veterinamerhautova.cz/",
    "lat": 49.2101729,
    "lon": 16.6236697
  },
  {
    "id": "PRX/PK/047",
    "doktor": "MVDr. Hanzálek Tomáš",
    "adresa": "Tichá 59/2,  Slezské Předměstí, Hradec Králové",
    "nazev": "HANZA s.r.o.",
    "telefon": "727920881",
    "email": "info@veterinahk.cz",
    "web": "https://www.veterinahk.cz/",
    "lat": 50.2151381,
    "lon": 15.8532966
  },
  {
    "id": "PRX/PK/048",
    "doktor": "MVDr. Schwetter Kamil",
    "adresa": "Boleslavova 20, 140 00  Praha 4",
    "nazev": "Veterinární klinika Nusle",
    "telefon": "241401000",
    "email": "info@veterinanusle.cz",
    "web": "https://www.veterinanusle.cz/",
    "lat": 50.0635584,
    "lon": 14.4373435
  },
  {
    "id": "PRX/PK/049",
    "doktor": "MVDr. Šlachta Petr",
    "adresa": "Bruzovská 1852, 738 01 Frýdek-Místek",
    "nazev": "ALFAVET veterinární klinika",
    "telefon": "558632435",
    "email": "slachtova@alfavet.cz",
    "web": "https://www.alfavet.cz/",
    "lat": 49.6906613,
    "lon": 18.3606538
  },
  {
    "id": "PRX/PK/050",
    "doktor": "MVDr. Pospíšil Michal",
    "adresa": "Českobratrská 32,  772 00  Olomouc",
    "nazev": "Veterinární klinika TOSA",
    "telefon": "602705159",
    "email": "klinikatosa@volny.cz",
    "web": "https://www.klinikatosa.cz/",
    "lat": 49.5835373,
    "lon": 17.255222
  },
  {
    "id": "PRX/PK/051",
    "doktor": "MVDr. Kostka František",
    "adresa": "Královský vršek 3, 586 01  Jihlava",
    "nazev": "Veterina Jihlava",
    "telefon": "603795180",
    "email": "kostka@svujihlava.cz",
    "web": "http://www.veterinajihlava.cz/",
    "lat": 49.4082073,
    "lon": 15.5844697
  },
  {
    "id": "PRX/PK/052",
    "doktor": "MVDr. Hylák Ivo",
    "adresa": "Dědická 680/27A,  682 01  Vyškov",
    "nazev": "VyVet",
    "telefon": "721926265",
    "email": "klinikavyvet@seznam.cz",
    "web": "https://www.veterinar-vyskov.cz/",
    "lat": 49.2837925,
    "lon": 16.9878302
  },
  {
    "id": "PRX/PK/053",
    "doktor": "NEPLATNÉ",
    "adresa": "",
    "nazev": "",
    "telefon": "",
    "email": "",
    "web": "",
    "lat": 49.7439047,
    "lon": 15.3381061
  },
  {
    "id": "PRX/PK/054PŘ",
    "doktor": "MVDr. Šlesinger Miloslav",
    "adresa": "Dvorky 257, Koryčany",
    "nazev": " ",
    "telefon": "606235010",
    "email": "veterina@jestrabice.cz",
    "web": "",
    "lat": 49.1067632,
    "lon": 17.1651384
  },
  {
    "id": "PRX/PK/055PPS",
    "doktor": "MVDr. Šimek Juraj",
    "adresa": "Hviezdoslavova 1417/64,  905 01  Senica, Slovensko",
    "nazev": "MVDr. Juraj Šimek",
    "telefon": "421346543114",
    "email": "vetguardsenica@gmail.com",
    "web": "",
    "lat": 48.6787425,
    "lon": 17.3554619
  },
  {
    "id": "PRX/PK/056",
    "doktor": "MVDr. Hrbáčková Barbora",
    "adresa": "Benátky 23, 698 01  Veselí nad Moravou",
    "nazev": "Vet Blue Cross s.r.o.",
    "telefon": "724257650",
    "email": "info@veterina-veseli.cz",
    "web": "",
    "lat": 48.9552066,
    "lon": 17.3750754
  },
  {
    "id": "PRX/PK/057",
    "doktor": "MVDr. Kaděra Jakub",
    "adresa": "Lomená 1389,  686 01  Uherské Hradiště",
    "nazev": "Veterinární klinika Uherské Hradiště",
    "telefon": "572579784",
    "email": "jakub.kadera@post.cz",
    "web": "",
    "lat": 49.0600026,
    "lon": 17.4824946
  },
  {
    "id": "PRX/PK/058",
    "doktor": "MVDr. Ekr Jaromír",
    "adresa": "Pražská 94/53, 500 04  Hradec Králové 4  Kukleny",
    "nazev": "VET-KLINIKA s.r.o.",
    "telefon": "491114180",
    "email": "ordinace@vetklinika.cz",
    "web": "https://www.vetklinika.cz/",
    "lat": 50.2059963,
    "lon": 15.7969201
  },
  {
    "id": "PRX/PK/059",
    "doktor": "MVDr. Mach Stanislav",
    "adresa": "Obránců Míru 164 (Malé náměstí), 550 01  Broumov",
    "nazev": "Benemastr s.r.o.",
    "telefon": "603562870, 491521173",
    "email": "benemastr@seznam.cz",
    "web": "",
    "lat": 50.5842213,
    "lon": 16.334175
  },
  {
    "id": "PRX/PK/060",
    "doktor": "MVDr. Valenta Petr",
    "adresa": "Jana Kuchaře 2781/18,  796 01  Prostějov",
    "nazev": " ",
    "telefon": "602521578, 582365865",
    "email": "veterinapv@seznam.cz",
    "web": "",
    "lat": 49.4792023,
    "lon": 17.1229518
  },
  {
    "id": "PRX/PK/062",
    "doktor": "MVDr. Pospíšil Vlastimil",
    "adresa": "Puškinova 409/63,  682 01  Vyškov",
    "nazev": " ",
    "telefon": "603223340",
    "email": "pospisilvlastimil@gmail.com",
    "web": "https://www.veterina-vyskov.cz/",
    "lat": 49.2768699,
    "lon": 16.9826174
  },
  {
    "id": "PRX/PK/063",
    "doktor": "MVDr. Čermák Jan",
    "adresa": "E. Beneše 470, Česká Skalice",
    "nazev": "Skavet+ veterinární centrum",
    "telefon": "774510159, 491431548",
    "email": "skavet@seznam.cz",
    "web": "https://www.skavet.cz/",
    "lat": 50.3955,
    "lon": 16.038875
  },
  {
    "id": "PRX/PK/064",
    "doktor": "MVDr. Kolářová Martina",
    "adresa": "Požární 332, 500 03  Hradec Králové",
    "nazev": "Veterina Háječek",
    "telefon": "739064763",
    "email": "mvdr.kolarova@gmail.com",
    "web": "https://www.veterina-hajecek.cz/",
    "lat": 50.2161659,
    "lon": 15.8601775
  },
  {
    "id": "PRX/PK/065",
    "doktor": "MVDr. Novák Martin",
    "adresa": "Nerudova 1040,  735 81  Bohumín",
    "nazev": "ABVET",
    "telefon": "604957560",
    "email": "abvet@seznam.cz",
    "web": "https://www.abvet.cz/",
    "lat": 49.9069175,
    "lon": 18.3528063
  },
  {
    "id": "PRX/PK/066",
    "doktor": "MVDr. Šturm Milan",
    "adresa": "Jugoslávská 26, 741 01 Nový Jičín",
    "nazev": "Veterinární ošetřovna Nový Jičín",
    "telefon": "602523930",
    "email": "osetrovna@sturm.cz",
    "web": "http://www.veterinanovyjicin.cz/",
    "lat": 49.5996043,
    "lon": 18.0154074
  },
  {
    "id": "PRX/PK/067",
    "doktor": "MVDr. Bernáth Adrián",
    "adresa": "Hodonínska 16,  8741 03  Bratislava, Slovensko",
    "nazev": "Marfilvet veterinárna nemocnica",
    "telefon": "421911555055",
    "email": "info@marfilvet.sk",
    "web": "",
    "lat": 48.1917602,
    "lon": 17.0470681
  },
  {
    "id": "PRX/PK/068",
    "doktor": "MVDr. Havelka Miloš",
    "adresa": "Turecká 44, 266 01  Malé Přílepy",
    "nazev": "Veterina VeMaP s.r.o.",
    "telefon": "722347461",
    "email": "kontakt@vemap.cz",
    "web": "",
    "lat": 50.0130495,
    "lon": 14.1155708
  },
  {
    "id": "PRX/PK/069",
    "doktor": "MVDr. Švejda Martin",
    "adresa": "Mlýnská 10, 594 01  Velké Meziříčí",
    "nazev": " ",
    "telefon": " ",
    "email": "martin.svejda@seznam.cz",
    "web": "",
    "lat": 49.3557763,
    "lon": 16.0134875
  },
  {
    "id": "PRX/PK/070",
    "doktor": "MVDr. Mlejnský Radomír",
    "adresa": "Revoluční 1506,  686 06  Uherské Hradiště",
    "nazev": "Veterina Mlejnský",
    "telefon": "602791545",
    "email": "radomir.mlejnsky@gmail.com",
    "web": "",
    "lat": 49.0652853,
    "lon": 17.4570631
  },
  {
    "id": "PRX/PK/071",
    "doktor": "MVDr. Náhlík Jan",
    "adresa": "Nádražní 2282, 397 01 Písek",
    "nazev": "Veterinární klinika Bohemia",
    "telefon": "792220290",
    "email": "info@veterinabohemia.cz",
    "web": "http://www.veterinabohemia.cz/",
    "lat": 49.3001701,
    "lon": 14.1484352
  },
  {
    "id": "PRX/PK/072",
    "doktor": "MVDr. Palička Marek",
    "adresa": "Palackého 1479/24, 74 601 Opava",
    "nazev": "",
    "telefon": "420732454232",
    "email": "ordinace@veterinaopava.cz",
    "web": "",
    "lat": 49.9352076,
    "lon": 17.89108
  },
  {
    "id": "PRX/PK/073",
    "doktor": "MVDr. Král Dušan",
    "adresa": "Hvězdoslavova 1600/6, 149 00  Praha 4",
    "nazev": "Regia Vet s.r.o.",
    "telefon": "773880335",
    "email": "matej.mensik@regiavet.cz",
    "web": "https://www.regiavet.cz/",
    "lat": 50.0259,
    "lon": 14.4731
  },
  {
    "id": "PRX/PK/074",
    "doktor": "MVDr. Hrušková Janka",
    "adresa": "Valdštejnská 243, 472 01  Doksy",
    "nazev": "",
    "telefon": "724181454",
    "email": "veterinadoksy@seznam.cz",
    "web": "http://veterinarniklinikadoksy.cz/",
    "lat": 50.568285,
    "lon": 14.65342
  },
  {
    "id": "PRX/PK/075",
    "doktor": "MVDr. Nouzáková Eva",
    "adresa": "Bečváry 39, 281 43",
    "nazev": "",
    "telefon": "728530820",
    "email": "mvdr.syrova@gmail.com",
    "web": "https://veterinabecvary.cz/",
    "lat": 49.9568253,
    "lon": 15.08154
  },
  {
    "id": "PRX/PK/076",
    "doktor": "MVDr. Janoušková Lucie",
    "adresa": "Tajovského 1310/4, 142 00 Praha 4 Krč",
    "nazev": "Vet-Krč s.r.o.",
    "telefon": "731323746",
    "email": "info@vetkrc.cz",
    "web": "http://www.vetkrc.cz/",
    "lat": 50.0217372,
    "lon": 14.4540655
  },
  {
    "id": "PRX/PK/077",
    "doktor": "MVDr. Mgr. Křížek Jaroslav, MVDr. Hundáková Anna",
    "adresa": "J.R. Schustera 4/2359, 370 07  České Budějovice",
    "nazev": "BUDvet s.r.o.",
    "telefon": "775662484",
    "email": "info@budvet.cz",
    "web": "https://www.budvet.cz/",
    "lat": 48.9483808,
    "lon": 14.4699744
  },
  {
    "id": "PRX/PK/078",
    "doktor": "MVDr. Hynčíková Birnerová Linda",
    "adresa": "Sadová 636, 344 01  Domažlice",
    "nazev": "",
    "telefon": "604489477",
    "email": "vet@ordinace.vet",
    "web": "https://www.ordinace.vet/",
    "lat": 49.4429915,
    "lon": 12.9194346
  },
  {
    "id": "PRX/PK/079",
    "doktor": "MVDr. Houtke Michal",
    "adresa": "Boženy Němcové 1782/5,  350 02  Cheb",
    "nazev": "H+VET",
    "telefon": "723969583",
    "email": "info@hplusvet.cz; houtkem@gmail.com",
    "web": "https://www.hplusvet.cz/",
    "lat": 50.0860394,
    "lon": 12.3698607
  },
  {
    "id": "PRX/PK/080",
    "doktor": "MVDr. Špruček František Melichar, Ph.D., MBA",
    "adresa": "Tylova 3, 779 01  Olomouc",
    "nazev": "Veterinární klinika Špruček, s.r.o.",
    "telefon": "702048944",
    "email": "sprucek@email.cz",
    "web": "http://www.vetklinik.cz/",
    "lat": 49.5933159,
    "lon": 17.2467517
  },
  {
    "id": "PRX/PK/081",
    "doktor": "MVDr. Štancl Oldřich",
    "adresa": "B. Němcové 1178,  565 01  Choceň",
    "nazev": "",
    "telefon": "465472987",
    "email": "o.stancl@seznam.cz",
    "web": "",
    "lat": 49.9875113,
    "lon": 16.2265125
  },
  {
    "id": "PRX/PK/082",
    "doktor": "MVDr. et MVDr. Krkoška Leoš, Ph.D.",
    "adresa": "Suchdolské nám. 1249/8, 165 00  Praha 6 Suchdol",
    "nazev": "Veterinární klinika SUCHDOL, s.r.o.",
    "telefon": "220920117",
    "email": "info@veterinasuchdol.cz",
    "web": "https://veterinasuchdol.cz/",
    "lat": 50.136167,
    "lon": 14.381006
  },
  {
    "id": "PRX/PK/083",
    "doktor": "MVDr. Minaříková Dagmar",
    "adresa": "Náměstí 5. května 24,  252 25  Jinočany",
    "nazev": "",
    "telefon": "775733216",
    "email": "info@veterina-jinocany.cz",
    "web": "https://www.veterina-jinocany.cz/",
    "lat": 50.0323926,
    "lon": 14.2673224
  },
  {
    "id": "PRX/PK/084",
    "doktor": "MVDr. Klouda Zbyněk, Ph.D.",
    "adresa": "Březinova 58,  674 01  Třebíč",
    "nazev": "Veterinární klinika TreVet",
    "telefon": "731409488",
    "email": "infovtrevet.cz",
    "web": "http://www.trevet.cz/",
    "lat": 49.2089267,
    "lon": 15.8906963
  },
  {
    "id": "PRX/PK/085",
    "doktor": "MVDr. Sliacka Gabriela",
    "adresa": "Družstevná 8,  960 01  Zvolen",
    "nazev": "ZvolenVet",
    "telefon": "421944330018",
    "email": "zvolenvet@gmail.com",
    "web": "https://www.zvolenvet.sk/",
    "lat": 48.574291,
    "lon": 19.1461181
  },
  {
    "id": "PRX/PK/086",
    "doktor": "MVDr. Rambousek Lukáš",
    "adresa": "Dělnická 6,  568 02  Svitavy",
    "nazev": "",
    "telefon": "727977167",
    "email": "lukas.ram@seznam.cz",
    "web": "http://www.vetvill.cz/",
    "lat": 49.7519788,
    "lon": 16.4594566
  },
  {
    "id": "PRX/PK/087",
    "doktor": "MVDr. Hošek Jan",
    "adresa": "Dukelská 5623, 430 01  Chomutov",
    "nazev": "Veterinární klinika Chomutov s.r.o.",
    "telefon": "603523660",
    "email": "info@veterinachomutov.cz",
    "web": "http://www.veterinachomutov.cz/",
    "lat": 50.457448,
    "lon": 13.4250409
  },
  {
    "id": "PRX/PK/088",
    "doktor": "MVDr. Faga Miroslav",
    "adresa": "Zavarská 11,  917 01  Trnava, Slovensko",
    "nazev": "FG Vet s.fr.o.",
    "telefon": "421335501609",
    "email": "vetklinikatrnava@gmail.com",
    "web": "http://www.svktt.sk/",
    "lat": 48.3739648,
    "lon": 17.6165805
  },
  {
    "id": "PRX/PK/089",
    "doktor": "MVDr. Barbořík Tomáš",
    "adresa": "Za mlýnem 55,  750 02  Přerov",
    "nazev": "",
    "telefon": "731408882",
    "email": "veterina.vystaviste@seznam.cz",
    "web": "https://www.veterinar-prerov.cz/",
    "lat": 49.460635,
    "lon": 17.4527039
  },
  {
    "id": "PRX/PK/090",
    "doktor": "MVDr. Bartoň Roman",
    "adresa": "U lesa 1740/1, 370 05  České Budějovice",
    "nazev": "Veterinární nemocnice CB-vet s.r.o.",
    "telefon": "385310797",
    "email": "info@cb-vet.cz",
    "web": "https://cb-vet.cz/",
    "lat": 48.9793496,
    "lon": 14.4357176
  },
  {
    "id": "PRX/PK/091",
    "doktor": "MVDr. Krišlo Jakub",
    "adresa": "Trenčianska 1, 913 21  Trenčianska Turná, Slovensko",
    "nazev": "Veterina Pelikán, s.r.o.",
    "telefon": "421911775886",
    "email": "veterinapelikan@gmail.com",
    "web": "http://www.veterinapelikan.sk/",
    "lat": 48.85,
    "lon": 18.0166667
  },
  {
    "id": "PRX/PK/092",
    "doktor": "MVDr. Kovalik Marcel, Ph.D.",
    "adresa": "Dolné Rudiny 8730/15D,  010 01  Žilina, Slovensko",
    "nazev": "Anima Group, s.r.o.",
    "telefon": "421412901600",
    "email": "recepcia.za@animavets.sk",
    "web": "https://www.animavets.sk/",
    "lat": 49.2189571,
    "lon": 18.7288598
  },
  {
    "id": "PRX/PŘ/042",
    "doktor": "MVDr. Jarošová Eliška",
    "adresa": "Kapitána Jaroše 318/4,  360 06  Karlovy Vary - Dvory",
    "nazev": "Elis VET s.r.o.",
    "telefon": "776377073",
    "email": "elisvetsro@gmail.com",
    "web": "https://www.veterinadvory.cz/",
    "lat": 50.2280095,
    "lon": 12.8344418
  },
  {
    "id": "PRX/PK/094",
    "doktor": "MVDr. Brychta Jaroslav",
    "adresa": "Lazy V/654, 760 01  Zlín",
    "nazev": "Veterinární klinika Lazy",
    "telefon": "577210229",
    "email": "info@veterina-lazy.cz",
    "web": "https://www.veterina-lazy.cz/",
    "lat": 49.2194213,
    "lon": 17.6802663
  },
  {
    "id": "PRX/PK/095",
    "doktor": "MVDr. Zábojník Jiří",
    "adresa": "Prakšická 2591, 688 01  Uherský Brod",
    "nazev": "",
    "telefon": "572635770, 723280241",
    "email": "zabojnik.jiri@atlas.cz",
    "web": "https://www.veterina-zabojnik.cz/",
    "lat": 49.0340418,
    "lon": 17.6463905
  },
  {
    "id": "PRX/PK/096",
    "doktor": "MVDr. Pilátová Katarína",
    "adresa": "Puškinova 11, 911 01  Trenčín, Slovensko",
    "nazev": "Centrum pro malé zvieratá",
    "telefon": "421911130806",
    "email": "mvdr.pilatova@gmail.com",
    "web": "https://centrum-pre-male-zvierata.business.site/",
    "lat": 48.8814531,
    "lon": 18.0219809
  },
  {
    "id": "PRX/PK/097",
    "doktor": "MVDr. Minář Marek",
    "adresa": "Nový Malín 898, 788 03  Nový Malín",
    "nazev": "Veterinární klinika Minář, s.r.o.",
    "telefon": "775212280",
    "email": "vetminar@seznam.cz",
    "web": "https://www.vetminar.cz/",
    "lat": 49.9551945,
    "lon": 16.9985769
  },
  {
    "id": "PRX/PK/098",
    "doktor": "MVDr. Mackových Jana",
    "adresa": "Popradská 11877/32, 821 06  Bratislava, Slovensko",
    "nazev": "Veterinárna klinika Planet s.r.o.",
    "telefon": "421902166511",
    "email": "mackovychj@gmail.com",
    "web": "https://klinikaplanet.sk/",
    "lat": 48.1356789,
    "lon": 17.1941974
  },
  {
    "id": "PRX/PK/099",
    "doktor": "MVDr. Hájek Jan",
    "adresa": "Družstevní 242, 377 01  Jindřichův Hradec",
    "nazev": "JHvet s.r.o.",
    "telefon": "608753537",
    "email": "jhvet@gmail.com",
    "web": "https://www.jhvet.cz/",
    "lat": 49.1540385,
    "lon": 14.9984215
  },
  {
    "id": "PRX/PK/100",
    "doktor": "MVDr. Dvořák Viktor",
    "adresa": "Brněnská 159, 666 01  Tišnov",
    "nazev": "",
    "telefon": "549412181",
    "email": "dvorakovic.hanicka@centrum.cz",
    "web": "http://www.vet-tisnov.cz/",
    "lat": 49.3460361,
    "lon": 16.4241841
  },
  {
    "id": "PRX/PK/101",
    "doktor": "MVDr. Duchek Lukáš",
    "adresa": "K Hájům 2671/8, 155 00  Praha 5",
    "nazev": "VETCENTRUM Duchek s.r.o.",
    "telefon": "251511651",
    "email": "provoz@vetcentrum.cz",
    "web": "https://www.vetcentrum.cz/",
    "lat": 50.0571633,
    "lon": 14.3259923
  },
  {
    "id": "PRX/PK/102",
    "doktor": "MVDr. Šoltys Vladimír",
    "adresa": "Brarákova 584,  506 01  Jičín",
    "nazev": "JICIN-vet, s.r.o.",
    "telefon": "602466536",
    "email": "klinika@jicinvet.cz",
    "web": "https://www.jicinvet.cz/",
    "lat": 50.4368577,
    "lon": 15.3495441
  },
  {
    "id": "PRX/PK/103",
    "doktor": "MVDr. Stacho Ladislav",
    "adresa": "Štúrova 76/11, 018 41  Dubnica nad Váhom, Slovensko",
    "nazev": "",
    "telefon": "421908438260",
    "email": "veterinaduovet@gmail.com",
    "web": "",
    "lat": 48.9612068,
    "lon": 18.1777583
  },
  {
    "id": "PRX/KO/011",
    "doktor": "MVDr. Kuncl Ladislav",
    "adresa": "Kleisslova 228/7,  301 00  Plzeň",
    "nazev": " ",
    "telefon": "725816896, 603423776",
    "email": "veterinakz@volny.cz",
    "web": "https://www.veterinakleisslova.cz/",
    "lat": 49.7563202,
    "lon": 13.3724589
  },
  {
    "id": "PRX/PK/104",
    "doktor": "MVDr. Paluš Juraj",
    "adresa": "Sv. Cyrila a Metoda 7, 010 08  Žilina, Slovensko",
    "nazev": "Veterinárna klinika Žilina, s.r.o.",
    "telefon": "421904602933",
    "email": "veronika.maliackova@gmail.com",
    "web": "https://www.vetklinikazilina.sk/",
    "lat": 49.4067441,
    "lon": 19.4819229
  },
  {
    "id": "PRX/PPS/011",
    "doktor": "MVDr. Gregořík Dominik",
    "adresa": "Veselá 21, Slušovice 76915",
    "nazev": "MVDr. Dominik Gregořík",
    "telefon": "603207973",
    "email": "info@veterina-slusovice.cz",
    "web": "https://www.veterina-slusovice.cz/",
    "lat": 49.254,
    "lon": 17.705
  },
  {
    "id": "PRX/PK/105",
    "doktor": "MVDr. Šíma Jan",
    "adresa": "Pomořanská 489, 181 00  Praha 8",
    "nazev": "TROJAVET s.r.o. ",
    "telefon": "283850672",
    "email": "vet.osetrovna.pom@seznam.cz",
    "web": "https://www.veterinabohnice.cz/",
    "lat": 50.1259346,
    "lon": 14.4117906
  },
  {
    "id": "PRX/PK/106",
    "doktor": "MVDr. Tíkal Lubomír",
    "adresa": "Dukelská 198, 293 01  Mladá Boleslav",
    "nazev": "BONAVET s.r.o.",
    "telefon": "739661909",
    "email": "info@bonavet.cz",
    "web": "https://www.bonavet.cz/",
    "lat": 50.4138875,
    "lon": 14.9116975
  },
  {
    "id": "PRX/PK/107",
    "doktor": "MVDr. Fajt Zdeněk, Ph.D., MVDr. Fajtová Veronika",
    "adresa": "Hlavní 1, Radostice 664 46, Pavlíkova 9/18, Ořechov 664 44",
    "nazev": "FF-vet, s.r.o.",
    "telefon": "777584772",
    "email": "info@veterina-radostice.cz",
    "web": "https://veterina-radostice.business.site/",
    "lat": 49.1363583,
    "lon": 16.4748381
  },
  {
    "id": "PRX/PK/108",
    "doktor": "MVDr. Štursa Jaromír",
    "adresa": "Nerudova 2258, 580 01  Hlavlíčkův Brod",
    "nazev": "",
    "telefon": "604569831",
    "email": "stursa.jaromir@seznam.cz",
    "web": "http://www.veterinahb.cz/",
    "lat": 49.6074387,
    "lon": 15.5692367
  },
  {
    "id": "PRX/PPS/015",
    "doktor": "MVDr. Vrána Petr",
    "adresa": "Vráclavská 1601,  739 34  Šenov",
    "nazev": " ",
    "telefon": "602401123",
    "email": "veterina-senov@seznam.cz",
    "web": "https://www.veterina-senov.cz/",
    "lat": 49.7858488,
    "lon": 18.371041
  },
  {
    "id": "PRX/PK/109",
    "doktor": "MVDr. Šturmová Šárka",
    "adresa": "Hoblíkova 15, 741 01  Nový Jičín",
    "nazev": "Veterinární ordinace NJvet (EuroBioMa s.r.o.)",
    "telefon": "602871076",
    "email": "sturmovasarka@seznam.cz",
    "web": "http://njvet.cz/",
    "lat": 49.596025,
    "lon": 18.01424
  },
  {
    "id": "PRX/PK/110",
    "doktor": "MVDr. Štusáková Andrea",
    "adresa": "J.E. Purkyně 1218, 570 01  Litomyšl",
    "nazev": "VET - S s.r.o.",
    "telefon": "777772317",
    "email": "ordinace@vet-s.cz",
    "web": "https://www.vet-s.cz/",
    "lat": 49.8654727,
    "lon": 16.3113184
  },
  {
    "id": "PRX/PK/111",
    "doktor": "MVDr. Belák Michal",
    "adresa": "Mojmírova 16, 971 01  Prievidza, Slovensko",
    "nazev": "Veterinárna klinika ZOOVET",
    "telefon": "421905833319",
    "email": "klinikazoovet@gmail.com",
    "web": "http://zoovet.org/",
    "lat": 48.7781391,
    "lon": 18.6426
  },
  {
    "id": "PRX/PK/112",
    "doktor": "MVDr. Mazánek Stanislav, Ph.D.",
    "adresa": "Holubova 208/2, 638 00  Brno",
    "nazev": "Veterinární klinika SamVet s.r.o.",
    "telefon": "603465329",
    "email": "samvet@samvet.cz",
    "web": "",
    "lat": 49.2218534,
    "lon": 16.6329138
  },
  {
    "id": "PRX/PK/113",
    "doktor": "MVDr. Lagínová Hana",
    "adresa": "ČSA 218, 537 01  Chrudim",
    "nazev": "LH VET s.r.o.",
    "telefon": "736775899, 469630151",
    "email": "lhvet@seznam.cz",
    "web": "https://vetlaginova.cz/",
    "lat": 49.902654,
    "lon": 15.9092945
  },
  {
    "id": "PRX/PK/114",
    "doktor": "MVDr. Zekuciová Viera",
    "adresa": "Martinkova 5, 602 00  Brno",
    "nazev": "",
    "telefon": "602400144",
    "email": "zekuciova.vet@seznam.cz",
    "web": "https://www.zekuvet.cz/",
    "lat": 49.209012,
    "lon": 16.6130011
  },
  {
    "id": "PRX/PK/115",
    "doktor": "MVDr. Just Robert",
    "adresa": "Jihomoravské náměstí 1, 627 00  Brno",
    "nazev": "",
    "telefon": "723523960",
    "email": "veterinajust@gmail.com",
    "web": "https://www.vet-just.cz/",
    "lat": 49.1787328,
    "lon": 16.6847545
  },
  {
    "id": "PRX/PK/116",
    "doktor": "MVDr. Ferenc Robert",
    "adresa": "Cesta k Paľovej búde 21/B,  010 01  Žilina, Slovensko",
    "nazev": "Vethouse",
    "telefon": "421905747976",
    "email": "vethouse@vethouse.sk",
    "web": "https://vethouse.sk/",
    "lat": 49.2234674,
    "lon": 18.7393139
  },
  {
    "id": "PRX/PK/117",
    "doktor": "MVDr. Evinic Samuel",
    "adresa": "Chlumecká 591/9,  198 00  Praha 9",
    "nazev": "MetropoleVet Praha s.r.o.",
    "telefon": "777728473",
    "email": "info@metropolevet.cz",
    "web": "https://www.metropolevet.cz/",
    "lat": 50.107752,
    "lon": 14.5618735
  },
  {
    "id": "PRX/PK/118",
    "doktor": "MVDr. Ziman Vladimír",
    "adresa": "Zuzany Chalupovej 7A, 851 07  Bratislava. Slovensko",
    "nazev": "Veterinárna klinika Slnečnice s.r.o.",
    "telefon": "421917155155",
    "email": "klinika@veterinaslnecnice.sk",
    "web": "https://veterinaslnecnice.sk/",
    "lat": 48.0935504,
    "lon": 17.1136759
  },
  {
    "id": "PRX/PK/119",
    "doktor": "MVDr. Čajánková Barbora",
    "adresa": "Ostašovská 584/26,  460 00  Liberec",
    "nazev": "",
    "telefon": "602557383",
    "email": "bara.cajankova@gmail.com",
    "web": "http://veterinarniklinikaruzodol.cz/",
    "lat": 50.7728008,
    "lon": 15.0362358
  },
  {
    "id": "PRX/PK/120",
    "doktor": "MVDr.  Pašek Ivan",
    "adresa": "Orešianska 8881/1A,  917 01  Trnava, Slovensko",
    "nazev": "ZVIERACIA KLINIKA PAŠEK s.r.o.",
    "telefon": "421905888121",
    "email": "pasekova@zkp.sk",
    "web": "https://www.zkp.sk/",
    "lat": 48.3925439,
    "lon": 17.5493339
  },
  {
    "id": "PRX/PK/121",
    "doktor": "MVDr. Láznička Alois",
    "adresa": "V Koutech 9, 257 21  Poříčí nad Sázavou",
    "nazev": "",
    "telefon": "775064640",
    "email": "veterinaporici@volny.cz",
    "web": "https://www.veterinalaznicka.cz/",
    "lat": 49.8419244,
    "lon": 14.6706351
  },
  {
    "id": "PRX/PK/122",
    "doktor": "MVDr. Bárta Jiří",
    "adresa": "Svitavská 500, 678 01  Blansko",
    "nazev": "",
    "telefon": "516410131, 775228684",
    "email": "ordinace@vet-blansko.cz",
    "web": "https://vet-blansko.cz/",
    "lat": 49.3591989,
    "lon": 16.6433504
  },
  {
    "id": "PRX/PK/123",
    "doktor": "MVDr. Mikulková Martina, MVDr. Hřibňáková Veronika",
    "adresa": "Slovácká 553/50, 690 02  Břeclav",
    "nazev": "VM - vet s.r.o.",
    "telefon": "777002549",
    "email": "veterina@vmvet.cz",
    "web": "https://vmvet.cz/",
    "lat": 48.7560725,
    "lon": 16.8929026
  },
  {
    "id": "PRX/PK/124",
    "doktor": "MVDr. Duroň Pavol",
    "adresa": "Dostojevského 23, 058 01  Poprad, Slovensko",
    "nazev": "",
    "telefon": "421905248311",
    "email": "pavol.duron@gmail.com",
    "web": "https://veterina-poprad.sk/",
    "lat": 49.0486124,
    "lon": 20.3007186
  },
  {
    "id": "PRX/PK/125",
    "doktor": "MVDr. Serafín Vladimír",
    "adresa": "Komjatická 65, 940 02  Nové Zámky, Slovensko",
    "nazev": "veterinárna poliklinika Nové Zámky",
    "telefon": "421902357660",
    "email": "info@veterinanz.sk",
    "web": "https://veterinanz.sk/",
    "lat": 47.9986212,
    "lon": 18.1607452
  },
  {
    "id": "PRX/PK/126",
    "doktor": "MVDr. Novotná Gabriela",
    "adresa": "Vintířovská 905, 357 35  Chodov",
    "nazev": "Vetmedik s.r.o.",
    "telefon": "606887896",
    "email": "vetmedik@centrum.cz",
    "web": "https://vetmedik.cz/",
    "lat": 50.2280279,
    "lon": 12.7336412
  },
  {
    "id": "PRX/PK/127",
    "doktor": "MVDr. Nytra Jan",
    "adresa": "Ukrajinská 1536, 708 00  Ostrava - Poruba",
    "nazev": "Vet klinika Nytra s.r.o.",
    "telefon": "603545022, 777663988",
    "email": "jannytra@centrum.cz",
    "web": "https://www.vetklinika-nytra.cz/",
    "lat": 49.824391,
    "lon": 18.1909256
  },
  {
    "id": "PRX/PK/128",
    "doktor": "MVDr. Polák Martin",
    "adresa": "Veterinární klinika LIFE s.r.o.",
    "nazev": "Dělnická 1412/59a, 735 64  Havířov",
    "telefon": "776280984",
    "email": "martin.polak.vet@gmail.com",
    "web": "https://veterinahavirov.cz/",
    "lat": 49.7958753,
    "lon": 18.4488441
  },
  {
    "id": "PRX/PK/129",
    "doktor": "MVDr. Meloun Otakar",
    "adresa": "U Střelnice 1846, 583 01  Chotěboř",
    "nazev": "EMVET",
    "telefon": "775115003",
    "email": "info@emvet.cz",
    "web": "https://www.emvet.cz/",
    "lat": 49.711742,
    "lon": 15.6610061
  },
  {
    "id": "PRX/PK/130",
    "doktor": "MVDr. Stránská Vladěna",
    "adresa": "Vrchlického 230, 503 15  Nechanice",
    "nazev": "veterina Rozárka",
    "telefon": "604245180",
    "email": "info@veterinarozarka.cz",
    "web": "https://veterinarozarka.cz/",
    "lat": 50.3283,
    "lon": 15.698
  },
  {
    "id": "PRX/PK/131",
    "doktor": "MVDr. Slavíček Malá Iva, MVDr. Müller Jan",
    "adresa": "Santiniho 504/8, 591 01  Žďár nad Sázavou",
    "nazev": "veterinární klinika IGGY",
    "telefon": "602661633",
    "email": "iggyvet@seznam.cz",
    "web": "https://www.iggyvet.cz/",
    "lat": 49.580746,
    "lon": 15.9354201
  },
  {
    "id": "PRX/PK/132",
    "doktor": "MVDr. Šťastný Jan",
    "adresa": "Dálčice 22, 582 82  Golčův Jeníkov",
    "nazev": "",
    "telefon": "602746545",
    "email": "stastny.jenik@centrum.cz",
    "web": "",
    "lat": 49.7848957,
    "lon": 15.5612117
  },
  {
    "id": "PRX/PPS/009",
    "doktor": "MVDr. Hanáková Nikola",
    "adresa": "Pertržílova 3305/21, Praha 4, 143 00",
    "nazev": "Mika spol. s r.o.",
    "telefon": "734113388",
    "email": "info@nasveterinar.cz",
    "web": "https://www.vetkom.cz/veterinar/mvdr-nikola-hanakova/",
    "lat": 50.0011321,
    "lon": 14.4301348
  },
  {
    "id": "PRX/PK/133",
    "doktor": "MVDr. Weidenhöfer Tomáš",
    "adresa": "Jemelkova 703/42, 625 00  Brno",
    "nazev": "ABClinic (Regia Vet s.r.o.)",
    "telefon": "547242126, 606513925",
    "email": "recepce@veterinabrno.cz",
    "web": "https://veterinabrno.cz/",
    "lat": 49.1676662,
    "lon": 16.5571526
  },
  {
    "id": "PRX/PK/134",
    "doktor": "MVDr. Lukáš Jiří",
    "adresa": "Tylova 2150, 272 01  Kladno",
    "nazev": "Veterinární klinika Kladno Bresson",
    "telefon": "606873017",
    "email": "lukasjiri@seznam.cz",
    "web": "https://veterinalukasovi.cz/",
    "lat": 50.1446465,
    "lon": 14.0774215
  },
  {
    "id": "PRX/PK/135",
    "doktor": "MVDr. Němcová Klára",
    "adresa": "Kukýrna 40, 666 01  Tišnov",
    "nazev": "",
    "telefon": "777520235",
    "email": "info@veterina-tisnov.cz",
    "web": "https://www.veterina-tisnov.cz/",
    "lat": 49.3524903,
    "lon": 16.4251739
  },
  {
    "id": "PRX/PK/136",
    "doktor": "MVDr. Minárik Jan, MRCVS",
    "adresa": "Na Zápraží 390/1, 460 07  Liberec 3",
    "nazev": "Veterinární klinika NISA",
    "telefon": "485102277, 722400420",
    "email": "info@klinikanisa.cz",
    "web": "https://www.klinikanisa.cz/",
    "lat": 50.7677424,
    "lon": 15.0523203
  },
  {
    "id": "PRX/PŘ/062",
    "doktor": "MVDr. Jurovic Aleš",
    "adresa": "1. máje 2, 792 01  Bruntál",
    "nazev": "Veterinární služby Bruntál, s.r.o.",
    "telefon": "721750029",
    "email": "ales.jurovic@seznam.cz",
    "web": "",
    "lat": 49.9320876,
    "lon": 17.2678813
  },
  {
    "id": "PRX/PK/137",
    "doktor": "MVDr. Farkašová Jana",
    "adresa": "Veterná 1370/2, 900 28  Ivanka pri Dunaji, Slovensko",
    "nazev": "Lionvet s.r.o.",
    "telefon": "421902812000",
    "email": "lionvetivanka@gmail.com",
    "web": "https://www.lionvet.sk/sk",
    "lat": 48.1885931,
    "lon": 17.2578039
  },
  {
    "id": "PRX/PK/138",
    "doktor": "MVDr. Král Josef",
    "adresa": "Roháčova 836, 280 02  Kolín 2",
    "nazev": "Veterinární klinika u Kašpara",
    "telefon": "724804606",
    "email": "info@veterina-kaspar.cz",
    "web": "https://www.veterina-kaspar.cz/",
    "lat": 50.0202535,
    "lon": 15.1996395
  },
  {
    "id": "PRX/PPS/018",
    "doktor": "MVDr. Dašek Michal",
    "adresa": "Velehradská 19, 130 00  Praha 3",
    "nazev": "Veterinární klinika Fénix ",
    "telefon": "720365001, 605866858",
    "email": "info@veterinafenix.cz",
    "web": "https://www.veterinafenix.cz/",
    "lat": 50.0798908,
    "lon": 14.4531217
  },
  {
    "id": "PRX/PK/139",
    "doktor": "MVDr. Langer Jiří",
    "adresa": "Mlůádežnická 1340, 293 01  Mladá Boleslav",
    "nazev": "Veterinární klinika SALVUS",
    "telefon": "326731757",
    "email": "jlanger@email.cz",
    "web": "",
    "lat": 50.4329426,
    "lon": 14.9192656
  },
  {
    "id": "PRX/KO/005",
    "doktor": "MVDr. Plachý Jakub",
    "adresa": "Heřmanův Městec 538 03, Nový Dvůr 993",
    "nazev": "Equine Vet Service a.s.",
    "telefon": "602424664",
    "email": "info@klinikahm.cz",
    "web": "",
    "lat": 49.947025,
    "lon": 15.68981
  },
  {
    "id": "PRX/PK/140",
    "doktor": "MVDr. Štěrba Martin",
    "adresa": "Rooseveltova 1239/32, 746 01  Opava",
    "nazev": "Veterinární klinika na Kopci s.r.o.",
    "telefon": "602777884",
    "email": "agenda@veterinarniklinika.net",
    "web": "https://veterinarniklinika.net/",
    "lat": 49.9321813,
    "lon": 17.9013325
  },
  {
    "id": "PRX/PPS/005",
    "doktor": "MVDr. Fialová Jana",
    "adresa": "U zoologické zahrady 219/13, 635 00 Brno",
    "nazev": "Veterina U Zoo s.r.o.",
    "telefon": "775940772",
    "email": "info@veterinauzoo.cz",
    "web": "http://www.veterinauzoo.cz/",
    "lat": 49.2281719,
    "lon": 16.5335831
  },
  {
    "id": "PRX/PK/141",
    "doktor": "MVDr. Gargel Jan",
    "adresa": "Tovární 1062, 356 01  Sokolov",
    "nazev": "",
    "telefon": "352601240",
    "email": "gargelvet@gmail.com",
    "web": "http://www.veterinasokolov.cz/",
    "lat": 50.1796268,
    "lon": 12.65506
  },
  {
    "id": "PRX/PK/142",
    "doktor": "MVDr. Voldřich Eduard",
    "adresa": "U Malé řeky 625, 156 00  Praha 5 Zbraslav",
    "nazev": "VET 2.0 s.r.o. (Veterinární klinika Zbraslav",
    "telefon": "737239602",
    "email": "info@veterinazbraslav.cz",
    "web": "https://veterinazbraslav.cz/",
    "lat": 49.9749207,
    "lon": 14.3966128
  },
  {
    "id": "PRX/PK/143",
    "doktor": "MVDr. Hanzlová Anna",
    "adresa": "Kaplnská 14, 919 43  Cífer, Slovensko",
    "nazev": "Veterinárna klinika Tri-vet s.r.o.",
    "telefon": "421905336943",
    "email": "annahanzlova@gmail.com",
    "web": "https://www.trivet.sk/",
    "lat": 48.3151877,
    "lon": 17.4902571
  },
  {
    "id": "PRX/PK/144",
    "doktor": "MVDr. Finsterle René",
    "adresa": "Na Brně 566/1, 500 06  Hradec Králové",
    "nazev": "VETINO HKvet s.r.o.",
    "telefon": "495514512, 603554962",
    "email": "info@hkvet.cz",
    "web": "",
    "lat": 50.1929835,
    "lon": 15.8523256
  },
  {
    "id": "PRX/PK/145",
    "doktor": "MVDr. Pavelková Helena",
    "adresa": "Mochovská 535/38, 198 00  Praha 9",
    "nazev": "Veterinární klinika Hloubětín s.r.o.",
    "telefon": "281863796",
    "email": "ordinace@veterinahloubetin.cz",
    "web": "https://veterinahloubetin.cz/",
    "lat": 50.1068984,
    "lon": 14.5373723
  },
  {
    "id": "PRX/PK/146",
    "doktor": "MVDr. Smatana Ladislav",
    "adresa": "Školská 60, 972 01  Bojnice, Slovensko",
    "nazev": "Veterinárna prax EJMI Bojnice, s.r.o.",
    "telefon": "421905478536",
    "email": "kontaktvejmi.sk",
    "web": "https://www.ejmi.sk/",
    "lat": 48.7852179,
    "lon": 18.5862103
  },
  {
    "id": "PRX/PK/147",
    "doktor": "MVDr. Janásková Šárka",
    "adresa": "Nad Stadionem 485, 385 01  Vimperk",
    "nazev": "",
    "telefon": "776890531",
    "email": "janaskova.sarka@email.cz",
    "web": "https://www.veterina-vimperk.cz/",
    "lat": 49.0566416,
    "lon": 13.778851
  },
  {
    "id": "PRX/PK/148",
    "doktor": "MVDr. Šimunek Juraj",
    "adresa": "Vinohrady 16A, 940 02  Nové Zámky, Slovensko",
    "nazev": "",
    "telefon": "421902033973",
    "email": "vinohradyvet@gmail.com",
    "web": "https://veterinarnaklinikanz.sk/",
    "lat": 48.0038161,
    "lon": 18.1655378
  },
  {
    "id": "PRX/PK/149",
    "doktor": "MVDr. Hlaváč Jan",
    "adresa": "Koldinova 272,  339 01  Klatovy",
    "nazev": "Veterinární ordinace Klatovy, s.r.o.",
    "telefon": "724333889",
    "email": "veterina@veterinakoldinova.cz",
    "web": "https://veterinakoldinova.cz/",
    "lat": 49.401953,
    "lon": 13.2883069
  },
  {
    "id": "PRX/PK/150",
    "doktor": "MVDr. Veselská Vendula",
    "adresa": "Dolnoveská 198, 763 16  Fryšták",
    "nazev": "HappyVet s.r.o.",
    "telefon": "733583343",
    "email": "happyvet@seznam.cz",
    "web": "https://www.happyvet-frystak.cz/",
    "lat": 49.2789025,
    "lon": 17.6783688
  },
  {
    "id": "PRX/PK/151",
    "doktor": "MVDr. Janouškovcová Diana, MVDr. Jaouskovec Petr",
    "adresa": "Hálkova 2140, 347 01  Tachov",
    "nazev": "Veterina Tachov s.r.o.",
    "telefon": "603339493, 731419399",
    "email": "veterina.tachov@seznam.cz",
    "web": "http://www.veterina-tachov.cz/",
    "lat": 49.7913928,
    "lon": 12.6256205
  },
  {
    "id": "PRX/PK/152",
    "doktor": "MVDr. Mikoška Ludvík",
    "adresa": "Nádražní 1181, 342 01  Sušice",
    "nazev": "",
    "telefon": "376524260",
    "email": "mikoskaludvik@seznam.cz",
    "web": "",
    "lat": 49.2418028,
    "lon": 13.5335684
  },
  {
    "id": "PRX/PPS/007",
    "doktor": "MVDr. Košťál Jakub",
    "adresa": "Felixova 1635, Česká Třebová",
    "nazev": "Veterinární klinika u nádraží",
    "telefon": "733616927",
    "email": "ordinace@vet-ct.cz",
    "web": "https://www.vet-ct.cz/cz",
    "lat": 49.8995785,
    "lon": 16.4447898
  },
  {
    "id": "PRX/PK/153",
    "doktor": "MVDr. Michalák Dávid",
    "adresa": "ČSA 963/1810, 962 31  Sliač, Slovensko",
    "nazev": "Veterinárna klinika Sliač",
    "telefon": "421907280474",
    "email": "michalakdavid@gmail.com",
    "web": "https://www.veterinar-sliac.sk/",
    "lat": 48.6131806,
    "lon": 19.1423663
  },
  {
    "id": "PRX/PK/154",
    "doktor": "MVDr. Vokrouhlík Pavel",
    "adresa": "Drkolnovská 647, 261 01  Příbram - Zdaboř",
    "nazev": "",
    "telefon": "774679117",
    "email": "klinika@nazdabori.cz",
    "web": "https://nazdabori.cz/",
    "lat": 49.6725691,
    "lon": 13.9866888
  },
  {
    "id": "PRX/PK/155",
    "doktor": "MVDr. Stoklasová Vendula",
    "adresa": "nám. TGM 104, Golčův Jeníkov",
    "nazev": "externista u MVDr. Krumlové",
    "telefon": "720345849",
    "email": "mvdrstoklasovavgmail.com",
    "web": "",
    "lat": 49.8158381,
    "lon": 15.4776176
  },
  {
    "id": "PRX/PK/156",
    "doktor": "MVDr. Gebauer Marek",
    "adresa": "Arnošta  Rychlého 24,  747 05  Opava",
    "nazev": "",
    "telefon": "724231832",
    "email": "marek.gebauer@tiscali.cz",
    "web": "https://www.veterinagebauer.cz/",
    "lat": 49.9469677,
    "lon": 17.9270855
  },
  {
    "id": "PRX/PK/157",
    "doktor": "MVDr. Vitásek Petr",
    "adresa": "Bludovská 1, 787 01  Šumperk",
    "nazev": "",
    "telefon": "608747083",
    "email": "vinvet@centrum.cz",
    "web": "http://www.va-sumperk.cz/",
    "lat": 49.9654523,
    "lon": 16.9651466
  },
  {
    "id": "PRX/PK/158",
    "doktor": "MVDr. Dobrovolná Marie",
    "adresa": "Vratislavovo nám 117,  592 31  Nové město na Moravě",
    "nazev": "další ordinace ve Žďáru nad Sázavou",
    "telefon": "776288662",
    "email": "marie.dobrovolna@email.cz",
    "web": "https://www.veterinanmnm.cz/",
    "lat": 49.56123,
    "lon": 16.0733813
  },
  {
    "id": "PRX/PK/159",
    "doktor": "MVDr. Freivoltová Lucia",
    "adresa": "Dulovo námestie 13, 821 08  Bratislava, Slovensko",
    "nazev": "Veterinárna ambulancia Veterinka-LR",
    "telefon": "421255960402",
    "email": "veterinkalr@gmail.com",
    "web": "https://www.veterinka.sk/",
    "lat": 48.1490887,
    "lon": 17.1337197
  },
  {
    "id": "PRX/PK/160",
    "doktor": "MVDr. Cita Ondřej",
    "adresa": "Březiny 197, 405 02  Děčín",
    "nazev": "cityVET s.r.o.",
    "telefon": "720565826",
    "email": "cityvet@email.cz",
    "web": "https://cityvet.xyz/",
    "lat": 50.7639181,
    "lon": 14.2453384
  },
  {
    "id": "PRX/PK/161",
    "doktor": "MVDr. Žáček Václav",
    "adresa": "Poštovní 1214, 407 47  Varnsdorf, Růžová 915, 40801  Rumburk",
    "nazev": "",
    "telefon": "602441779",
    "email": "vaclav.zacek@seznam.cz",
    "web": "https://www.vetzaceknevrla.cz/",
    "lat": 50.9095113,
    "lon": 14.6264113
  },
  {
    "id": "PRX/PK/162",
    "doktor": "MVDr. Šálek Jiří",
    "adresa": "Masarykovo náměstí 34, 52 01  Kojetín",
    "nazev": "",
    "telefon": "774845117",
    "email": "veterinakojetin@seznam.cz",
    "web": "https://jirisalek.cz/",
    "lat": 49.3520358,
    "lon": 17.3029759
  },
  {
    "id": "PRX/PK/163",
    "doktor": "MVDr. Škriniarová Natálie",
    "adresa": "Olší 27/19, 798 17  Smržice",
    "nazev": "",
    "telefon": "602345783",
    "email": "natalie.skriniarova@seznam.cz",
    "web": "",
    "lat": 49.5065086,
    "lon": 17.0994005
  },
  {
    "id": "PRX/PK/164",
    "doktor": "MVDr. Chvátal Karel",
    "adresa": "Za Zámeckou zahradou 1694, 767 01  Kroměříž",
    "nazev": "",
    "telefon": "573337809",
    "email": "et.km@vianet.cz",
    "web": "https://veterinakromeriz.cz/",
    "lat": 49.305867,
    "lon": 17.3836204
  }
]